{
  "request": {
    "urlPath": "/v1/geocode",
    "method": "GET"
  },
  "response": {
    "status": 200,
    "jsonBody": {
      "items": [
        {
          "title": "Pariser Stra\u00dfe 11, 10719 Berlin, Deutschland",
          "id": "here:af:streetsection:Q2hINv6M87ck6YT9k9jv-C:CgcIBCCEt_lQEAEaAjEx",
          "resultType": "houseNumber",
          "houseNumberType": "PA",
          "address": {
            "label": "Pariser Stra\u00dfe 11, 10719 Berlin, Deutschland",
            "countryCode": "DEU",
            "countryName": "Deutschland",
            "stateCode": "BE",
            "state": "Berlin",
            "countyCode": "B",
            "county": "Berlin",
            "city": "Berlin",
            "district": "Wilmersdorf",
            "street": "Pariser Stra\u00dfe",
            "postalCode": "10719",
            "houseNumber": "11"
          },
          "position": {
            "lat": 52.49684,
            "lng": 13.32579
          },
          "access": [
            {
              "lat": 52.4967,
              "lng": 13.32571
            }
          ],
          "mapView": {
            "west": 13.32431,
            "south": 52.49594,
            "east": 13.32727,
            "north": 52.49774
          },
          "scoring": {
            "queryScore": 0.79,
            "fieldScore": {
              "country": 1,
              "city": 1,
              "streets": [
                0.9
              ],
              "houseNumber": 1,
              "postalCode": 1
            }
          }
        },
        {
          "title": "Pariser Stra\u00dfe 11, 12623 Berlin, Deutschland",
          "id": "here:af:streetsection:iBrPVqOYpdgPIPKWi8wn4B:CgcIBCDyhvJQEAEaAjEx",
          "resultType": "houseNumber",
          "houseNumberType": "PA",
          "address": {
            "label": "Pariser Stra\u00dfe 11, 12623 Berlin, Deutschland",
            "countryCode": "DEU",
            "countryName": "Deutschland",
            "stateCode": "BE",
            "state": "Berlin",
            "countyCode": "B",
            "county": "Berlin",
            "city": "Berlin",
            "district": "Mahlsdorf",
            "street": "Pariser Stra\u00dfe",
            "postalCode": "12623",
            "houseNumber": "11"
          },
          "position": {
            "lat": 52.4858,
            "lng": 13.59301
          },
          "access": [
            {
              "lat": 52.48564,
              "lng": 13.59361
            }
          ],
          "mapView": {
            "west": 13.59153,
            "south": 52.4849,
            "east": 13.59449,
            "north": 52.4867
          },
          "scoring": {
            "queryScore": 0.61,
            "fieldScore": {
              "country": 1,
              "city": 1,
              "streets": [
                0.9
              ],
              "houseNumber": 1
            }
          }
        }
      ]
    }
  }
}